<?xml version="1.0" encoding="UTF-8"?>
<kml xmlns="http://www.opengis.net/kml/2.2">
	<Document>
		<name>ВТ (Алтернатив) Башкортостана</name>
		<Placemark>
			<name>Line 1</name>
			<LineString>
				<tessellate>1</tessellate>
				<coordinates>
					58.825736,54.560940
					58.825822,54.560318
					58.821809,54.558103
					58.818097,54.555975
					58.816617,54.555167
					58.815522,54.554843
					58.814921,54.554656
					58.816638,54.553449
					58.817174,54.552752
					58.817196,54.552043
					58.818762,54.550089
					58.818762,54.549716
					58.819234,54.549554
					58.819299,54.548919
					58.820264,54.548534
					58.820136,54.548160
					58.821080,54.547227
					58.822324,54.545397
					58.822432,54.545024
					58.824620,54.541688
					58.824534,54.541402
					58.824964,54.541165
					58.824964,54.540916
					58.825200,54.540667
					58.825285,54.540194
					58.825414,54.539659
					58.825500,54.538987
					58.825264,54.538713
					58.825650,54.538028
					58.825865,54.537343
					58.826165,54.536758
					58.826315,54.536522
					58.826380,54.536235
					58.827195,54.535115
					58.827045,54.534716
					58.827646,54.534393
					58.828011,54.533584
					58.828504,54.533260
					58.830736,54.530682
					58.830779,54.530272
					58.832109,54.528379
					58.832517,54.527707
					58.832753,54.527495
					58.833847,54.526673
					58.834040,54.526299
					58.835928,54.525079
					58.837366,54.523859
					58.838675,54.523024
					58.841679,54.521984
					58.842977,54.520708
					58.842575,54.520505
					58.842666,54.520400
					58.842650,54.520070
				</coordinates>
			</LineString>
		</Placemark>
		<Placemark>
			<name>Село Тюлюк</name>
			<Point>
				<coordinates>58.773873,54.610559,0</coordinates>
			</Point>
		</Placemark>
		<Placemark>
			<name>Медвежий хутор</name>
			<Point>
				<coordinates>58.826589,54.560436,0</coordinates>
			</Point>
		</Placemark>
		<Placemark>
			<name>Шлагбаум и парковка</name>
			<Point>
				<coordinates>58.825779,54.561310,0</coordinates>
			</Point>
		</Placemark>
		<Placemark>
			<name>Большой Иремель</name>
			<Point>
				<coordinates>58.842645,54.520085,0</coordinates>
			</Point>
		</Placemark>
		<Placemark>
			<name>Стоянка</name>
			<Point>
				<coordinates>58.820093,54.548372,0</coordinates>
			</Point>
		</Placemark>
		<Placemark>
			<name>Кемпинг</name>
			<Point>
				<coordinates>58.819991,54.556675,0</coordinates>
			</Point>
		</Placemark>
		<Placemark>
			<name>Брод</name>
			<Point>
				<coordinates>58.820103,54.557158,0</coordinates>
			</Point>
		</Placemark>
		<Placemark>
			<name>Брод</name>
			<Point>
				<coordinates>58.816423,54.555098,0</coordinates>
			</Point>
		</Placemark>
		<Placemark>
			<name>Брод</name>
			<Point>
				<coordinates>58.815340,54.554744,0</coordinates>
			</Point>
		</Placemark>
		<Placemark>
			<name>Трактир &quot;У зайца&quot;</name>
			<Point>
				<coordinates>58.824964,54.542130,0</coordinates>
			</Point>
		</Placemark>
	</Document>
	</kml>