<?xml version="1.0" encoding="UTF-8"?>
<kml xmlns="http://www.opengis.net/kml/2.2">
	<Document>
		<name>ВТ Вологодской области</name>
		<Placemark>
			<name>Line 1</name>
			<LineString>
				<tessellate>1</tessellate>
				<coordinates>
					35.556564,60.850931
					35.556350,60.849552
					35.558023,60.846499
					35.558174,60.845778
					35.557938,60.844377
					35.558431,60.843071
					35.558195,60.842642
					35.548325,60.836337
					35.532532,60.821695
					35.530043,60.819268
					35.528927,60.813995
					35.526438,60.811734
					35.521717,60.809474
					35.514765,60.807716
					35.510645,60.807046
					35.508370,60.806303
					35.504787,60.803937
					35.504036,60.802734
					35.505066,60.800975
					35.504808,60.797918
					35.499830,60.795280
					35.497942,60.793312
					35.493479,60.792055
					35.492020,60.791804
					35.489616,60.791720
					35.484295,60.789165
					35.479574,60.788788
					35.475883,60.787783
					35.473051,60.786484
					35.470562,60.786400
					35.467901,60.786987
					35.466442,60.787825
					35.453997,60.792893
					35.451765,60.793060
					35.449061,60.792621
					35.445929,60.792076
					35.443182,60.789584
					35.439534,60.788788
					35.438418,60.788809
					35.433784,60.787929
					35.433226,60.787280
					35.433097,60.785751
					35.434384,60.784620
					35.434341,60.781792
					35.432625,60.779948
					35.432625,60.775591
					35.427818,60.771987
					35.429363,60.768969
					35.425072,60.763771
					35.425243,60.762178
					35.426960,60.759830
					35.425930,60.754379
					35.427818,60.753205
					35.432796,60.751612
					35.436401,60.749515
					35.435028,60.747670
					35.434513,60.744398
					35.431938,60.744146
					35.417004,60.745237
					35.411682,60.744566
					35.401039,60.740119
					35.391941,60.739280
					35.388680,60.738357
					35.376835,60.738273
					35.374947,60.736259
					35.377178,60.733154
					35.374775,60.730805
					35.370655,60.730049
					35.371513,60.717121
					35.375977,60.715190
					35.380096,60.709984
					35.383186,60.707380
					35.384903,60.704440
					35.394173,60.699400
					35.397263,60.697048
					35.400696,60.690158
					35.401211,60.687637
					35.404301,60.686208
					35.405502,60.683687
					35.387907,60.679568
					35.378723,60.676647
					35.375923,60.677435
				</coordinates>
			</LineString>
		</Placemark>
		<Placemark>
			<name>Мальгора (GGC250m)</name>
			<Point>
				<coordinates>35.375901,60.677440,0</coordinates>
			</Point>
		</Placemark>
		<Placemark>
			<name>Село Ошта</name>
			<Point>
				<coordinates>35.556564,60.850921,0</coordinates>
			</Point>
		</Placemark>
		<Placemark>
			<name>Подъём на Мальгору</name>
			<Point>
				<coordinates>35.378702,60.676657,0</coordinates>
			</Point>
		</Placemark>
		<Placemark>
			<name>Мальгора (OSM)</name>
			<Point>
				<coordinates>35.377972,60.678013,0</coordinates>
			</Point>
		</Placemark>
		<Placemark>
			<name>Мальгора (GGC2km и Topomapper1km)</name>
			<Point>
				<coordinates>35.376492,60.678060,0</coordinates>
			</Point>
		</Placemark>
		<Placemark>
			<name>Поворот перед деревней Курвошский Погост</name>
			<Point>
				<coordinates>35.433698,60.787971,0</coordinates>
			</Point>
		</Placemark>
	</Document>
	</kml>